name,min_lat,min_lon,max_lat,max_lon,population_amount
Amsterdam,52.283805,4.761598,52.4208048,4.999186,821752
Rotterdam,51.86737,4.426222,51.969106,4.554422,626652
Leeuwarden,53.177461,5.756404,53.221861,5.85084,107691
Groningen,53.176832,6.499371,53.25504,6.625366,200336
Zwolle,52.481727,6.044728,52.544665,6.127997,123861
Middelburg,51.478881,3.588901,51.518407,3.644899,48544
